0.0&4.60635163801&2.1434500217437744#$GPGLL,4811.9378,N,00300.9012,W,102906.000,A,A*47
0.0&4.59009998136&2.237269401550293#$GPGLL,4811.9377,N,00300.9012,W,102907.000,A,A*49
2.98018351398e-05&4.67144093001&2.346156358718872#$GPGLL,4811.9377,N,00300.9012,W,102908.000,A,A*46
9.48099539457e-05&5.10023438039&2.67586088180542#$GPGLL,4811.9377,N,00300.9012,W,102909.000,A,A*47
-0.00136224135504&5.82125370633&3.677225351333618#$GPGLL,4811.9377,N,00300.9012,W,102910.000,A,A*4F
-0.00484600781346&0.0727417654913&4.675675868988037#$GPGLL,4811.9377,N,00300.9012,W,102911.000,A,A*4E
-0.00789519362313&0.0121158772092&5.675630569458008#$GPGLL,4811.9377,N,00300.9012,W,102912.000,A,A*4D
0.350584286521&0.256985392915&6.686100006103516#$GPGLL,4811.9389,N,00300.9014,W,102913.000,A,A*4B
0.729595804508&0.433350825943&7.693982839584351#$GPGLL,4811.9397,N,00300.9016,W,102914.000,A,A*41
0.967687927462&6.27378515427&8.675657510757446#$GPGLL,4811.9402,N,00300.9018,W,102915.000,A,A*45
1.13954357762&0.247072742474&9.685416221618652#$GPGLL,4811.9409,N,00300.9019,W,102916.000,A,A*4C
1.22818633666&0.408156159226&10.684528589248657#$GPGLL,4811.9415,N,00300.9020,W,102917.000,A,A*4A
1.2583882157&0.0101172375089&11.6755211353302#$GPGLL,4811.9421,N,00300.9021,W,102918.000,A,A*43
1.20460608826&6.17424674804&12.675920009613037#$GPGLL,4811.9425,N,00300.9021,W,102919.000,A,A*46
1.19390462045&0.0886288634999&13.675954103469849#$GPGLL,4811.9432,N,00300.9020,W,102920.000,A,A*4B
1.17709834393&0.221084127291&14.684707641601562#$GPGLL,4811.9438,N,00300.9022,W,102921.000,A,A*42
1.13350665395&0.142390669836&15.694355487823486#$GPGLL,4811.9443,N,00300.9023,W,102922.000,A,A*4C
1.05449405889&6.18806634552&16.68545889854431#$GPGLL,4811.9447,N,00300.9024,W,102923.000,A,A*4E
1.02342355338&0.0153317118427&17.686250925064087#$GPGLL,4811.9453,N,00300.9022,W,102924.000,A,A*4A
1.02259788957&0.141522452636&18.676299810409546#$GPGLL,4811.9459,N,00300.9023,W,102925.000,A,A*40
1.03643416434&6.2822316601&19.686847686767578#$GPGLL,4811.9465,N,00300.9026,W,102926.000,A,A*49
1.08247427387&6.15706064473&20.676393508911133#$GPGLL,4811.9472,N,00300.9026,W,102927.000,A,A*4E
1.11005457058&6.24708550335&21.675731897354126#$GPGLL,4811.9478,N,00300.9026,W,102928.000,A,A*4B
1.12505769233&0.104713867107&22.676148414611816#$GPGLL,4811.9484,N,00300.9025,W,102929.000,A,A*4A
1.13132019762&6.1756567709&23.685584783554077#$GPGLL,4811.9490,N,00300.9025,W,102930.000,A,A*47
1.13108420845&6.19314507114&24.686214923858643#$GPGLL,4811.9496,N,00300.9027,W,102931.000,A,A*42
1.12617201422&0.0944589212371&25.67613673210144#$GPGLL,4811.9502,N,00300.9028,W,102932.000,A,A*42
1.12755276503&0.115932075652&26.67566442489624#$GPGLL,4811.9508,N,00300.9029,W,102933.000,A,A*48
1.18372373375&6.26391651862&27.684167861938477#$GPGLL,4811.9516,N,00300.9028,W,102934.000,A,A*41
1.22867208167&0.185724586081&28.675570964813232#$GPGLL,4811.9523,N,00300.9028,W,102935.000,A,A*46
1.18263875638&0.174230757172&29.69140100479126#$GPGLL,4811.9527,N,00300.9029,W,102936.000,A,A*40
1.18055296407&0.0525202146044&30.676506996154785#$GPGLL,4811.9534,N,00300.9030,W,102937.000,A,A*4B
1.14204801647&0.183242954128&31.68578004837036#$GPGLL,4811.9539,N,00300.9031,W,102938.000,A,A*48
1.15684589015&0.211301674362&32.68520164489746#$GPGLL,4811.9546,N,00300.9036,W,102939.000,A,A*46
1.19090081725&0.133418190492&33.68275284767151#$GPGLL,4811.9553,N,00300.9037,W,102940.000,A,A*4D
1.19166912736&0.0881258161473&34.67558693885803#$GPGLL,4811.9559,N,00300.9036,W,102941.000,A,A*47
1.18444486909&0.363309789212&35.685240030288696#$GPGLL,4811.9565,N,00300.9039,W,102942.000,A,A*44
1.18179487748&0.393016647504&36.68583703041077#$GPGLL,4811.9571,N,00300.9041,W,102943.000,A,A*4F
1.17761543823&0.303714311879&37.68531274795532#$GPGLL,4811.9577,N,00300.9043,W,102944.000,A,A*4C
1.13235592672&0.32350386562&38.678340435028076#$GPGLL,4811.9581,N,00300.9047,W,102945.000,A,A*40
1.04192957118&0.626496096426&39.68545365333557#$GPGLL,4811.9584,N,00300.9051,W,102946.000,A,A*41
0.993068705631&0.643491771115&40.685853719711304#$GPGLL,4811.9587,N,00300.9058,W,102947.000,A,A*4A
0.974793984168&0.384133957158&41.67555832862854#$GPGLL,4811.9591,N,00300.9062,W,102948.000,A,A*4B
0.97316474735&0.416368024521&42.68269729614258#$GPGLL,4811.9596,N,00300.9066,W,102949.000,A,A*49
0.988722580746&0.883693671879&43.67618799209595#$GPGLL,4811.9601,N,00300.9071,W,102950.000,A,A*4A
1.05581504696&0.916884031349&44.68703007698059#$GPGLL,4811.9606,N,00300.9077,W,102951.000,A,A*4A
1.13932544605&0.59208833177&45.68508839607239#$GPGLL,4811.9612,N,00300.9082,W,102952.000,A,A*46
1.20614212407&0.754173559442&46.67452597618103#$GPGLL,4811.9617,N,00300.9089,W,102953.000,A,A*49
1.19994822958&1.28244170668&47.6752245426178#$GPGLL,4811.9620,N,00300.9095,W,102954.000,A,A*47
1.18891151448&0.773915963855&48.67604994773865#$GPGLL,4811.9623,N,00300.9101,W,102955.000,A,A*49
1.17679930544&0.811503477686&49.68344163894653#$GPGLL,4811.9626,N,00300.9109,W,102956.000,A,A*47
1.14947604111&1.43532335294&50.6855673789978#$GPGLL,4811.9629,N,00300.9116,W,102957.000,A,A*47
1.09815101916&1.35640974799&51.67642903327942#$GPGLL,4811.9628,N,00300.9123,W,102958.000,A,A*4F
1.05602081757&0.892208808107&52.68630409240723#$GPGLL,4811.9630,N,00300.9130,W,102959.000,A,A*45
1.00972247768&1.38404007893&53.68611788749695#$GPGLL,4811.9630,N,00300.9138,W,103000.000,A,A*49
0.972115938193&1.59684831709&54.68539071083069#$GPGLL,4811.9631,N,00300.9145,W,103001.000,A,A*43
0.991267729761&0.98944205164&55.685258865356445#$GPGLL,4811.9631,N,00300.9153,W,103002.000,A,A*47
1.01039421336&1.69670235862&56.693727254867554#$GPGLL,4811.9631,N,00300.9163,W,103003.000,A,A*45
1.07712101945&1.27406408199&57.68520474433899#$GPGLL,4811.9631,N,00300.9171,W,103004.000,A,A*41
1.09319885188&1.18378353938&58.685559034347534#$GPGLL,4811.9631,N,00300.9179,W,103005.000,A,A*48
1.09705911401&2.00650235046&59.68135929107666#$GPGLL,4811.9631,N,00300.9189,W,103006.000,A,A*44
1.25032022662&1.79141458794&60.685948610305786#$GPGLL,4811.9629,N,00300.9200,W,103007.000,A,A*4E
1.36568788052&1.50385424739&61.68622946739197#$GPGLL,4811.9627,N,00300.9209,W,103008.000,A,A*46
1.3757393078&1.5822944323&62.67638945579529#$GPGLL,4811.9624,N,00300.9217,W,103009.000,A,A*4B
1.27126571506&2.20126003272&63.684905767440796#$GPGLL,4811.9620,N,00300.9225,W,103010.000,A,A*46
1.31751428937&2.28818555845&64.67564678192139#$GPGLL,4811.9616,N,00300.9230,W,103011.000,A,A*46
1.43713321244&1.52314755501&65.68597292900085#$GPGLL,4811.9614,N,00300.9238,W,103012.000,A,A*4F
1.34350610056&1.44235544852&66.6863305568695#$GPGLL,4811.9608,N,00300.9241,W,103013.000,A,A*4D
1.09304089881&2.29265033418&67.68364191055298#$GPGLL,4811.9603,N,00300.9246,W,103014.000,A,A*46
1.15082490352&2.44176802886&68.6860899925232#$GPGLL,4811.9598,N,00300.9252,W,103015.000,A,A*43
1.33711022503&1.95213452336&69.68539714813232#$GPGLL,4811.9594,N,00300.9258,W,103016.000,A,A*46
1.40583266299&2.29613443841&70.67799806594849#$GPGLL,4811.9588,N,00300.9264,W,103017.000,A,A*45
1.46401288695&2.32519184659&71.68556141853333#$GPGLL,4811.9585,N,00300.9270,W,103018.000,A,A*42
1.46312741748&1.90490376793&72.67644715309143#$GPGLL,4811.9581,N,00300.9273,W,103019.000,A,A*44
1.27033704382&2.54698068625&73.6863329410553#$GPGLL,4811.9577,N,00300.9276,W,103020.000,A,A*42
1.24952661641&2.7279003442&74.68560814857483#$GPGLL,4811.9574,N,00300.9281,W,103021.000,A,A*48
1.30125266917&3.20825840713&75.67643713951111#$GPGLL,4811.9570,N,00300.9281,W,103022.000,A,A*4F
1.45053487373&3.85736929679&76.68499898910522#$GPGLL,4811.9567,N,00300.9282,W,103023.000,A,A*4B
1.6191412188&3.73384108974&77.68572282791138#$GPGLL,4811.9564,N,00300.9281,W,103024.000,A,A*4C
1.60650009398&3.92944566554&78.69471740722656#$GPGLL,4811.9561,N,00300.9279,W,103025.000,A,A*4F
1.45633223594&4.42469013213&79.6858561038971#$GPGLL,4811.9558,N,00300.9278,W,103026.000,A,A*47
1.25695189708&4.44614314375&80.68569874763489#$GPGLL,4811.9555,N,00300.9276,W,103027.000,A,A*45
1.03467484685&3.70147235214&81.69385886192322#$GPGLL,4811.9553,N,00300.9272,W,103028.000,A,A*48
0.909641106551&4.13166081224&82.6860830783844#$GPGLL,4811.9549,N,00300.9269,W,103029.000,A,A*48
